$GNRMC,235942.00,A,3200.2328586,S,11553.6879517,E,0.03,0.00,311221,0.0,E,A,V*47
$GNGGA,235942.00,3200.2328586,S,11553.6879517,E,1,12,1.0,65.948,M,-31.737,M,0.0,0000*53
$GNRMC,000012.00,A,3200.2326730,S,11553.6873277,E,0.05,0.00,010122,0.0,E,A,V*41
$GNGGA,000012.00,3200.2326730,S,11553.6873277,E,1,12,1.0,69.245,M,-31.737,M,0.0,0000*5B
$GNRMC,000042.00,A,3200.2327470,S,11553.6875411,E,0.03,0.00,010122,0.0,E,A,V*44
$GNGGA,000042.00,3200.2327470,S,11553.6875411,E,1,12,1.0,67.125,M,-31.737,M,0.0,0000*53
$GNRMC,000112.00,A,3200.2325850,S,11553.6873977,E,0.03,0.00,010122,0.0,E,A,V*47
$GNGGA,000112.00,3200.2325850,S,11553.6873977,E,1,13,1.0,67.275,M,-31.737,M,0.0,0000*57
$GNRMC,000142.00,A,3200.2328837,S,11553.6872500,E,0.03,0.00,010122,0.0,E,A,V*43
$GNGGA,000142.00,3200.2328837,S,11553.6872500,E,1,13,1.0,66.704,M,-31.737,M,0.0,0000*51
$GNRMC,000212.00,A,3200.2327314,S,11553.6871724,E,0.03,0.00,010122,0.0,E,A,V*47
$GNGGA,000212.00,3200.2327314,S,11553.6871724,E,1,13,1.0,67.927,M,-31.737,M,0.0,0000*5B
$GNRMC,000242.00,A,3200.2325291,S,11553.6870046,E,0.01,0.00,010122,0.0,E,A,V*4C
$GNGGA,000242.00,3200.2325291,S,11553.6870046,E,1,13,1.0,68.727,M,-31.737,M,0.0,0000*53
$GNRMC,000312.00,A,3200.2323325,S,11553.6874453,E,0.03,0.00,010122,0.0,E,A,V*46
$GNGGA,000312.00,3200.2323325,S,11553.6874453,E,1,13,1.0,68.882,M,-31.737,M,0.0,0000*5B
$GNRMC,000342.00,A,3200.2331120,S,11553.6877172,E,0.04,0.00,010122,0.0,E,A,V*45
$GNGGA,000342.00,3200.2331120,S,11553.6877172,E,1,13,1.0,68.414,M,-31.737,M,0.0,0000*5C
$GNRMC,000412.00,A,3200.2328931,S,11553.6873919,E,0.08,0.00,010122,0.0,E,A,V*4A
$GNGGA,000412.00,3200.2328931,S,11553.6873919,E,1,13,1.0,67.928,M,-31.737,M,0.0,0000*52
$GNRMC,000442.00,A,3200.2327935,S,11553.6877976,E,0.05,0.00,010122,0.0,E,A,V*44
$GNGGA,000442.00,3200.2327935,S,11553.6877976,E,1,13,1.0,67.843,M,-31.737,M,0.0,0000*5D
$GNRMC,000512.00,A,3200.2326527,S,11553.6873600,E,0.08,0.00,010122,0.0,E,A,V*49
$GNGGA,000512.00,3200.2326527,S,11553.6873600,E,1,13,1.0,67.925,M,-31.737,M,0.0,0000*5C
$GNRMC,000542.00,A,3200.2324281,S,11553.6874622,E,0.03,0.00,010122,0.0,E,A,V*49
$GNGGA,000542.00,3200.2324281,S,11553.6874622,E,1,13,1.0,69.661,M,-31.737,M,0.0,0000*56
$GNRMC,000612.00,A,3200.2326449,S,11553.6873960,E,0.03,0.00,010122,0.0,E,A,V*41
$GNGGA,000612.00,3200.2326449,S,11553.6873960,E,1,13,1.0,68.497,M,-31.737,M,0.0,0000*54
$GNRMC,000642.00,A,3200.2330707,S,11553.6873444,E,0.03,0.00,010122,0.0,E,A,V*41
$GNGGA,000642.00,3200.2330707,S,11553.6873444,E,1,13,1.0,67.946,M,-31.737,M,0.0,0000*5A
$GNRMC,000712.00,A,3200.2325725,S,11553.6876757,E,0.04,0.00,010122,0.0,E,A,V*42
$GNGGA,000712.00,3200.2325725,S,11553.6876757,E,1,13,1.0,70.073,M,-31.737,M,0.0,0000*57
$GNRMC,000742.00,A,3200.2329345,S,11553.6875920,E,0.01,0.00,010122,0.0,E,A,V*41
$GNGGA,000742.00,3200.2329345,S,11553.6875920,E,1,13,1.0,69.813,M,-31.737,M,0.0,0000*57
$GNRMC,000812.00,A,3200.2324442,S,11553.6877261,E,0.05,0.00,010122,0.0,E,A,V*4E
$GNGGA,000812.00,3200.2324442,S,11553.6877261,E,1,13,1.0,69.230,M,-31.737,M,0.0,0000*57
$GNRMC,000842.00,A,3200.2326176,S,11553.6878218,E,0.05,0.00,010122,0.0,E,A,V*4A
$GNGGA,000842.00,3200.2326176,S,11553.6878218,E,1,13,1.0,67.783,M,-31.737,M,0.0,0000*50
$GNRMC,000912.00,A,3200.2331565,S,11553.6872555,E,0.03,0.00,010122,0.0,E,A,V*4C
$GNGGA,000912.00,3200.2331565,S,11553.6872555,E,1,13,1.0,66.965,M,-31.737,M,0.0,0000*57
$GNRMC,000942.00,A,3200.2329798,S,11553.6873379,E,0.05,0.00,010122,0.0,E,A,V*4F
$GNGGA,000942.00,3200.2329798,S,11553.6873379,E,1,13,1.0,67.917,M,-31.737,M,0.0,0000*56
$GNRMC,001012.00,A,3200.2329497,S,11553.6875740,E,0.05,0.00,010122,0.0,E,A,V*46
$GNGGA,001012.00,3200.2329497,S,11553.6875740,E,1,13,1.0,67.870,M,-31.737,M,0.0,0000*5F
$GNRMC,001042.00,A,3200.2327962,S,11553.6874472,E,0.04,0.00,010122,0.0,E,A,V*48
$GNGGA,001042.00,3200.2327962,S,11553.6874472,E,1,13,1.0,68.280,M,-31.737,M,0.0,0000*5A
$GNRMC,001112.00,A,3200.2325099,S,11553.6871313,E,0.03,0.00,010122,0.0,E,A,V*41
$GNGGA,001112.00,3200.2325099,S,11553.6871313,E,1,13,1.0,69.506,M,-31.737,M,0.0,0000*5C
$GNRMC,001142.00,A,3200.2326458,S,11553.6872901,E,0.02,0.00,010122,0.0,E,A,V*45
$GNGGA,001142.00,3200.2326458,S,11553.6872901,E,1,13,1.0,69.071,M,-31.737,M,0.0,0000*5C
$GNRMC,001212.00,A,3200.2327637,S,11553.6874100,E,0.04,0.00,010122,0.0,E,A,V*40
$GNGGA,001212.00,3200.2327637,S,11553.6874100,E,1,13,1.0,68.688,M,-31.737,M,0.0,0000*5E
$GNRMC,001242.00,A,3200.2328949,S,11553.6876490,E,0.01,0.00,010122,0.0,E,A,V*47
$GNGGA,001242.00,3200.2328949,S,11553.6876490,E,1,13,1.0,68.155,M,-31.737,M,0.0,0000*5B
$GNRMC,001312.00,A,3200.2328636,S,11553.6874857,E,0.02,0.00,010122,0.0,E,A,V*42
$GNGGA,001312.00,3200.2328636,S,11553.6874857,E,1,13,1.0,69.560,M,-31.737,M,0.0,0000*5E
$GNRMC,001342.00,A,3200.2324013,S,11553.6871557,E,0.00,0.00,010122,0.0,E,A,V*40
$GNGGA,001342.00,3200.2324013,S,11553.6871557,E,1,13,1.0,70.605,M,-31.737,M,0.0,0000*56
$GNRMC,001412.00,A,3200.2329450,S,11553.6873722,E,0.03,0.00,010122,0.0,E,A,V*4D
$GNGGA,001412.00,3200.2329450,S,11553.6873722,E,1,13,1.0,70.137,M,-31.737,M,0.0,0000*5E
$GNRMC,001442.00,A,3200.2328668,S,11553.6873107,E,0.01,0.00,010122,0.0,E,A,V*43
$GNGGA,001442.00,3200.2328668,S,11553.6873107,E,1,13,1.0,71.143,M,-31.737,M,0.0,0000*50
$GNRMC,001512.00,A,3200.2327898,S,11553.6871928,E,0.02,0.00,010122,0.0,E,A,V*4D
$GNGGA,001512.00,3200.2327898,S,11553.6871928,E,1,13,1.0,69.645,M,-31.737,M,0.0,0000*55
$GNRMC,001542.00,A,3200.2329828,S,11553.6874593,E,0.02,0.00,010122,0.0,E,A,V*44
$GNGGA,001542.00,3200.2329828,S,11553.6874593,E,1,13,1.0,68.224,M,-31.737,M,0.0,0000*5E
$GNRMC,001612.00,A,3200.2331279,S,11553.6870702,E,0.03,0.00,010122,0.0,E,A,V*4A
$GNGGA,001612.00,3200.2331279,S,11553.6870702,E,1,13,1.0,69.364,M,-31.737,M,0.0,0000*55
$GNRMC,001642.00,A,3200.2322561,S,11553.6875394,E,0.02,0.00,010122,0.0,E,A,V*4C
$GNGGA,001642.00,3200.2322561,S,11553.6875394,E,1,12,1.0,67.526,M,-31.737,M,0.0,0000*5D
$GNRMC,001712.00,A,3200.2326041,S,11553.6869791,E,0.02,0.00,010122,0.0,E,A,V*47
$GNGGA,001712.00,3200.2326041,S,11553.6869791,E,1,12,1.0,66.628,M,-31.737,M,0.0,0000*5A
$GNRMC,001742.00,A,3200.2324055,S,11553.6868396,E,0.06,0.00,010122,0.0,E,A,V*43
$GNGGA,001742.00,3200.2324055,S,11553.6868396,E,1,12,1.0,66.167,M,-31.737,M,0.0,0000*56
$GNRMC,001812.00,A,3200.2319793,S,11553.6872147,E,0.04,0.00,010122,0.0,E,A,V*4D
$GNGGA,001812.00,3200.2319793,S,11553.6872147,E,1,12,1.0,67.164,M,-31.737,M,0.0,0000*58
$GNRMC,001842.00,A,3200.2318960,S,11553.6874347,E,0.05,0.00,010122,0.0,E,A,V*4E
$GNGGA,001842.00,3200.2318960,S,11553.6874347,E,1,12,1.0,69.796,M,-31.737,M,0.0,0000*5F
$GNRMC,001912.00,A,3200.2318575,S,11553.6869763,E,0.07,0.00,010122,0.0,E,A,V*4E
$GNGGA,001912.00,3200.2318575,S,11553.6869763,E,1,12,1.0,67.872,M,-31.737,M,0.0,0000*56
$GNRMC,001942.00,A,3200.2322907,S,11553.6871510,E,0.02,0.00,010122,0.0,E,A,V*41
$GNGGA,001942.00,3200.2322907,S,11553.6871510,E,1,12,1.0,67.305,M,-31.737,M,0.0,0000*57
$GNRMC,002012.00,A,3200.2321825,S,11553.6870340,E,0.04,0.00,010122,0.0,E,A,V*48
$GNGGA,002012.00,3200.2321825,S,11553.6870340,E,1,12,1.0,68.371,M,-31.737,M,0.0,0000*54
$GNRMC,002042.00,A,3200.2319574,S,11553.6868371,E,0.04,0.00,010122,0.0,E,A,V*44
$GNGGA,002042.00,3200.2319574,S,11553.6868371,E,1,12,1.0,69.115,M,-31.737,M,0.0,0000*59
$GNRMC,002112.00,A,3200.2318976,S,11553.6870825,E,0.03,0.00,010122,0.0,E,A,V*4B
$GNGGA,002112.00,3200.2318976,S,11553.6870825,E,1,12,1.0,67.921,M,-31.737,M,0.0,0000*50
$GNRMC,002142.00,A,3200.2321299,S,11553.6875580,E,0.01,0.00,010122,0.0,E,A,V*4B
$GNGGA,002142.00,3200.2321299,S,11553.6875580,E,1,12,1.0,67.844,M,-31.737,M,0.0,0000*50
$GNRMC,002212.00,A,3200.2319421,S,11553.6877026,E,0.02,0.00,010122,0.0,E,A,V*4B
$GNGGA,002212.00,3200.2319421,S,11553.6877026,E,1,13,1.0,68.542,M,-31.737,M,0.0,0000*56
$GNRMC,002242.00,A,3200.2321054,S,11553.6872774,E,0.03,0.00,010122,0.0,E,A,V*47
$GNGGA,002242.00,3200.2321054,S,11553.6872774,E,1,13,1.0,66.364,M,-31.737,M,0.0,0000*57
$GNRMC,002312.00,A,3200.2319040,S,11553.6872516,E,0.06,0.00,010122,0.0,E,A,V*4E
$GNGGA,002312.00,3200.2319040,S,11553.6872516,E,1,13,1.0,68.348,M,-31.737,M,0.0,0000*5B
$GNRMC,002342.00,A,3200.2317694,S,11553.6874732,E,0.05,0.00,010122,0.0,E,A,V*4B
$GNGGA,002342.00,3200.2317694,S,11553.6874732,E,1,13,1.0,67.690,M,-31.737,M,0.0,0000*52
$GNRMC,002412.00,A,3200.2320178,S,11553.6874008,E,0.03,0.00,010122,0.0,E,A,V*40
$GNGGA,002412.00,3200.2320178,S,11553.6874008,E,1,13,1.0,67.778,M,-31.737,M,0.0,0000*58
$GNRMC,002442.00,A,3200.2320344,S,11553.6869833,E,0.02,0.00,010122,0.0,E,A,V*45
$GNGGA,002442.00,3200.2320344,S,11553.6869833,E,1,13,1.0,65.883,M,-31.737,M,0.0,0000*55
$GNRMC,002512.00,A,3200.2321157,S,11553.6871956,E,0.03,0.00,010122,0.0,E,A,V*4A
$GNGGA,002512.00,3200.2321157,S,11553.6871956,E,1,13,1.0,67.020,M,-31.737,M,0.0,0000*58
$GNRMC,002542.00,A,3200.2321080,S,11553.6872330,E,0.02,0.00,010122,0.0,E,A,V*4C
$GNGGA,002542.00,3200.2321080,S,11553.6872330,E,1,13,1.0,66.286,M,-31.737,M,0.0,0000*50
$GNRMC,002612.00,A,3200.2323212,S,11553.6874302,E,0.03,0.00,010122,0.0,E,A,V*47
$GNGGA,002612.00,3200.2323212,S,11553.6874302,E,1,13,1.0,65.703,M,-31.737,M,0.0,0000*51
$GNRMC,002642.00,A,3200.2319631,S,11553.6873267,E,0.04,0.00,010122,0.0,E,A,V*4C
$GNGGA,002642.00,3200.2319631,S,11553.6873267,E,1,13,1.0,67.513,M,-31.737,M,0.0,0000*5C
$GNRMC,002712.00,A,3200.2320468,S,11553.6870022,E,0.04,0.00,010122,0.0,E,A,V*4C
$GNGGA,002712.00,3200.2320468,S,11553.6870022,E,1,13,1.0,67.379,M,-31.737,M,0.0,0000*56
$GNRMC,002742.00,A,3200.2323046,S,11553.6868752,E,0.01,0.00,010122,0.0,E,A,V*4E
$GNGGA,002742.00,3200.2323046,S,11553.6868752,E,1,13,1.0,67.316,M,-31.737,M,0.0,0000*58
$GNRMC,002812.00,A,3200.2321013,S,11553.6869678,E,0.03,0.00,010122,0.0,E,A,V*4C
$GNGGA,002812.00,3200.2321013,S,11553.6869678,E,1,13,1.0,65.281,M,-31.737,M,0.0,0000*55
$GNRMC,002842.00,A,3200.2317117,S,11553.6868085,E,0.02,0.00,010122,0.0,E,A,V*4D
$GNGGA,002842.00,3200.2317117,S,11553.6868085,E,1,13,1.0,66.243,M,-31.737,M,0.0,0000*58
$GNRMC,002912.00,A,3200.2313389,S,11553.6868116,E,0.02,0.00,010122,0.0,E,A,V*43
$GNGGA,002912.00,3200.2313389,S,11553.6868116,E,1,13,1.0,66.631,M,-31.737,M,0.0,0000*57
$GNRMC,002942.00,A,3200.2316176,S,11553.6869260,E,0.04,0.00,010122,0.0,E,A,V*44
$GNGGA,002942.00,3200.2316176,S,11553.6869260,E,1,13,1.0,66.525,M,-31.737,M,0.0,0000*50
$GNRMC,003012.00,A,3200.2315932,S,11553.6866602,E,0.07,0.00,010122,0.0,E,A,V*4E
$GNGGA,003012.00,3200.2315932,S,11553.6866602,E,1,13,1.0,66.313,M,-31.737,M,0.0,0000*5A
$GNRMC,003042.00,A,3200.2315571,S,11553.6867794,E,0.04,0.00,010122,0.0,E,A,V*4C
$GNGGA,003042.00,3200.2315571,S,11553.6867794,E,1,13,1.0,65.201,M,-31.737,M,0.0,0000*5A
$GNRMC,003112.00,A,3200.2315414,S,11553.6869040,E,0.03,0.00,010122,0.0,E,A,V*4D
$GNGGA,003112.00,3200.2315414,S,11553.6869040,E,1,13,1.0,67.282,M,-31.737,M,0.0,0000*55
$GNRMC,003142.00,A,3200.2318734,S,11553.6867857,E,0.02,0.00,010122,0.0,E,A,V*45
$GNGGA,003142.00,3200.2318734,S,11553.6867857,E,1,13,1.0,68.425,M,-31.737,M,0.0,0000*58
$GNRMC,003212.00,A,3200.2318282,S,11553.6869627,E,0.04,0.00,010122,0.0,E,A,V*4A
$GNGGA,003212.00,3200.2318282,S,11553.6869627,E,1,13,1.0,66.482,M,-31.737,M,0.0,0000*52
$GNRMC,003242.00,A,3200.2320712,S,11553.6868473,E,0.01,0.00,010122,0.0,E,A,V*4F
$GNGGA,003242.00,3200.2320712,S,11553.6868473,E,1,13,1.0,67.824,M,-31.737,M,0.0,0000*53
$GNRMC,003312.00,A,3200.2320327,S,11553.6871438,E,0.05,0.00,010122,0.0,E,A,V*4A
$GNGGA,003312.00,3200.2320327,S,11553.6871438,E,1,13,1.0,65.562,M,-31.737,M,0.0,0000*5F
$GNRMC,003342.00,A,3200.2318718,S,11553.6868538,E,0.04,0.00,010122,0.0,E,A,V*44
$GNGGA,003342.00,3200.2318718,S,11553.6868538,E,1,13,1.0,64.925,M,-31.737,M,0.0,0000*5E
$GNRMC,003412.00,A,3200.2318678,S,11553.6872513,E,0.03,0.00,010122,0.0,E,A,V*44
$GNGGA,003412.00,3200.2318678,S,11553.6872513,E,1,13,1.0,66.079,M,-31.737,M,0.0,0000*5B
$GNRMC,003442.00,A,3200.2315809,S,11553.6868736,E,0.03,0.00,010122,0.0,E,A,V*4A
$GNGGA,003442.00,3200.2315809,S,11553.6868736,E,1,13,1.0,66.155,M,-31.737,M,0.0,0000*5A
$GNRMC,003512.00,A,3200.2315032,S,11553.6870564,E,0.02,0.00,010122,0.0,E,A,V*43
$GNGGA,003512.00,3200.2315032,S,11553.6870564,E,1,13,1.0,66.533,M,-31.737,M,0.0,0000*56
$GNRMC,003542.00,A,3200.2318743,S,11553.6871611,E,0.03,0.00,010122,0.0,E,A,V*4B
$GNGGA,003542.00,3200.2318743,S,11553.6871611,E,1,13,1.0,65.960,M,-31.737,M,0.0,0000*56
$GNRMC,003612.00,A,3200.2320192,S,11553.6867548,E,0.02,0.00,010122,0.0,E,A,V*45
$GNGGA,003612.00,3200.2320192,S,11553.6867548,E,1,13,1.0,65.425,M,-31.737,M,0.0,0000*55
$GNRMC,003642.00,A,3200.2319243,S,11553.6872631,E,0.02,0.00,010122,0.0,E,A,V*4C
$GNGGA,003642.00,3200.2319243,S,11553.6872631,E,1,13,1.0,65.960,M,-31.737,M,0.0,0000*50
$GNRMC,003712.00,A,3200.2320483,S,11553.6868325,E,0.03,0.00,010122,0.0,E,A,V*42
$GNGGA,003712.00,3200.2320483,S,11553.6868325,E,1,13,1.0,66.386,M,-31.737,M,0.0,0000*5E
$GNRMC,003742.00,A,3200.2317946,S,11553.6867886,E,0.02,0.00,010122,0.0,E,A,V*4B
$GNGGA,003742.00,3200.2317946,S,11553.6867886,E,1,13,1.0,66.724,M,-31.737,M,0.0,0000*5A
$GNRMC,003812.00,A,3200.2327001,S,11553.6871577,E,0.02,0.00,010122,0.0,E,A,V*4C
$GNGGA,003812.00,3200.2327001,S,11553.6871577,E,1,12,1.0,63.118,M,-31.737,M,0.0,0000*50
$GNRMC,003842.00,A,3200.2323294,S,11553.6873621,E,0.05,0.00,010122,0.0,E,A,V*46
$GNGGA,003842.00,3200.2323294,S,11553.6873621,E,1,12,1.0,63.765,M,-31.737,M,0.0,0000*51
$GNRMC,003912.00,A,3200.2322909,S,11553.6869716,E,0.05,0.00,010122,0.0,E,A,V*42
$GNGGA,003912.00,3200.2322909,S,11553.6869716,E,1,12,1.0,63.324,M,-31.737,M,0.0,0000*54
$GNRMC,003942.00,A,3200.2323733,S,11553.6872101,E,0.04,0.00,010122,0.0,E,A,V*4A
$GNGGA,003942.00,3200.2323733,S,11553.6872101,E,1,12,1.0,65.294,M,-31.737,M,0.0,0000*51
$GNRMC,004012.00,A,3200.2324245,S,11553.6870851,E,0.02,0.00,010122,0.0,E,A,V*4A
$GNGGA,004012.00,3200.2324245,S,11553.6870851,E,1,12,1.0,63.501,M,-31.737,M,0.0,0000*5A
$GNRMC,004042.00,A,3200.2324278,S,11553.6871325,E,0.02,0.00,010122,0.0,E,A,V*48
$GNGGA,004042.00,3200.2324278,S,11553.6871325,E,1,12,1.0,64.348,M,-31.737,M,0.0,0000*54
$GNRMC,004112.00,A,3200.2323020,S,11553.6873541,E,0.03,0.00,010122,0.0,E,A,V*43
$GNGGA,004112.00,3200.2323020,S,11553.6873541,E,1,12,1.0,64.248,M,-31.737,M,0.0,0000*5F
$GNRMC,004142.00,A,3200.2324754,S,11553.6874042,E,0.02,0.00,010122,0.0,E,A,V*45
$GNGGA,004142.00,3200.2324754,S,11553.6874042,E,1,12,1.0,63.540,M,-31.737,M,0.0,0000*50
$GNRMC,004212.00,A,3200.2326250,S,11553.6873466,E,0.02,0.00,010122,0.0,E,A,V*45
$GNGGA,004212.00,3200.2326250,S,11553.6873466,E,1,12,1.0,64.464,M,-31.737,M,0.0,0000*50
$GNRMC,004242.00,A,3200.2327136,S,11553.6870669,E,0.03,0.00,010122,0.0,E,A,V*4D
$GNGGA,004242.00,3200.2327136,S,11553.6870669,E,1,12,1.0,63.426,M,-31.737,M,0.0,0000*58
$GNRMC,004312.00,A,3200.2329045,S,11553.6872837,E,0.05,0.00,010122,0.0,E,A,V*43
$GNGGA,004312.00,3200.2329045,S,11553.6872837,E,1,12,1.0,62.588,M,-31.737,M,0.0,0000*54
$GNRMC,004342.00,A,3200.2326720,S,11553.6870554,E,0.05,0.00,010122,0.0,E,A,V*47
$GNGGA,004342.00,3200.2326720,S,11553.6870554,E,1,12,1.0,62.458,M,-31.737,M,0.0,0000*5C
$GNRMC,004412.00,A,3200.2324547,S,11553.6871088,E,0.05,0.00,010122,0.0,E,A,V*41
$GNGGA,004412.00,3200.2324547,S,11553.6871088,E,1,12,1.0,64.078,M,-31.737,M,0.0,0000*5A
$GNRMC,004442.00,A,3200.2321715,S,11553.6869784,E,0.03,0.00,010122,0.0,E,A,V*40
$GNGGA,004442.00,3200.2321715,S,11553.6869784,E,1,12,1.0,63.093,M,-31.737,M,0.0,0000*5F
$GNRMC,004512.00,A,3200.2323738,S,11553.6871324,E,0.04,0.00,010122,0.0,E,A,V*49
$GNGGA,004512.00,3200.2323738,S,11553.6871324,E,1,12,1.0,64.247,M,-31.737,M,0.0,0000*5D
$GNRMC,004542.00,A,3200.2322890,S,11553.6877726,E,0.03,0.00,010122,0.0,E,A,V*47
$GNGGA,004542.00,3200.2322890,S,11553.6877726,E,1,12,1.0,64.828,M,-31.737,M,0.0,0000*57
$GNRMC,004612.00,A,3200.2325809,S,11553.6877070,E,0.04,0.00,010122,0.0,E,A,V*45
$GNGGA,004612.00,3200.2325809,S,11553.6877070,E,1,12,1.0,64.908,M,-31.737,M,0.0,0000*51
$GNRMC,004642.00,A,3200.2325632,S,11553.6875941,E,0.04,0.00,010122,0.0,E,A,V*4F
$GNGGA,004642.00,3200.2325632,S,11553.6875941,E,1,12,1.0,64.627,M,-31.737,M,0.0,0000*59
$GNRMC,004712.00,A,3200.2318255,S,11553.6870559,E,0.02,0.00,010122,0.0,E,A,V*46
$GNGGA,004712.00,3200.2318255,S,11553.6870559,E,1,12,1.0,65.215,M,-31.737,M,0.0,0000*52
$GNRMC,004742.00,A,3200.2323311,S,11553.6867048,E,0.05,0.00,010122,0.0,E,A,V*4E
$GNGGA,004742.00,3200.2323311,S,11553.6867048,E,1,12,1.0,63.743,M,-31.737,M,0.0,0000*5D
$GNRMC,004812.00,A,3200.2317976,S,11553.6865982,E,0.08,0.00,010122,0.0,E,A,V*48
$GNGGA,004812.00,3200.2317976,S,11553.6865982,E,1,12,1.0,64.408,M,-31.737,M,0.0,0000*5D
$GNRMC,004842.00,A,3200.2325108,S,11553.6868692,E,0.04,0.00,010122,0.0,E,A,V*42
$GNGGA,004842.00,3200.2325108,S,11553.6868692,E,1,12,1.0,64.897,M,-31.737,M,0.0,0000*51
$GNRMC,004912.00,A,3200.2319460,S,11553.6872404,E,0.04,0.00,010122,0.0,E,A,V*44
$GNGGA,004912.00,3200.2319460,S,11553.6872404,E,1,12,1.0,64.312,M,-31.737,M,0.0,0000*51
$GNRMC,004942.00,A,3200.2320750,S,11553.6874357,E,0.05,0.00,010122,0.0,E,A,V*4D
$GNGGA,004942.00,3200.2320750,S,11553.6874357,E,1,12,1.0,65.512,M,-31.737,M,0.0,0000*5E
$GNRMC,005012.00,A,3200.2319309,S,11553.6869286,E,0.02,0.00,010122,0.0,E,A,V*44
$GNGGA,005012.00,3200.2319309,S,11553.6869286,E,1,12,1.0,65.053,M,-31.737,M,0.0,0000*50
$GNRMC,005042.00,A,3200.2322838,S,11553.6869569,E,0.01,0.00,010122,0.0,E,A,V*45
$GNGGA,005042.00,3200.2322838,S,11553.6869569,E,1,12,1.0,64.957,M,-31.737,M,0.0,0000*5E
$GNRMC,005112.00,A,3200.2323910,S,11553.6871587,E,0.09,0.00,010122,0.0,E,A,V*4A
$GNGGA,005112.00,3200.2323910,S,11553.6871587,E,1,12,1.0,65.537,M,-31.737,M,0.0,0000*52
$GNRMC,005142.00,A,3200.2321794,S,11553.6871615,E,0.02,0.00,010122,0.0,E,A,V*4C
$GNGGA,005142.00,3200.2321794,S,11553.6871615,E,1,12,1.0,65.736,M,-31.737,M,0.0,0000*5C
$GNRMC,005212.00,A,3200.2320418,S,11553.6870234,E,0.02,0.00,010122,0.0,E,A,V*4A
$GNGGA,005212.00,3200.2320418,S,11553.6870234,E,1,12,1.0,64.462,M,-31.737,M,0.0,0000*59
$GNRMC,005242.00,A,3200.2319287,S,11553.6865096,E,0.06,0.00,010122,0.0,E,A,V*4F
$GNGGA,005242.00,3200.2319287,S,11553.6865096,E,1,12,1.0,65.709,M,-31.737,M,0.0,0000*57
$GNRMC,005312.00,A,3200.2319551,S,11553.6868911,E,0.02,0.00,010122,0.0,E,A,V*48
$GNGGA,005312.00,3200.2319551,S,11553.6868911,E,1,12,1.0,63.887,M,-31.737,M,0.0,0000*5B
$GNRMC,005342.00,A,3200.2324025,S,11553.6872307,E,0.03,0.00,010122,0.0,E,A,V*42
$GNGGA,005342.00,3200.2324025,S,11553.6872307,E,1,12,1.0,65.564,M,-31.737,M,0.0,0000*56
$GNRMC,005412.00,A,3200.2319427,S,11553.6870164,E,0.04,0.00,010122,0.0,E,A,V*4A
$GNGGA,005412.00,3200.2319427,S,11553.6870164,E,1,12,1.0,66.138,M,-31.737,M,0.0,0000*57
$GNRMC,005442.00,A,3200.2321182,S,11553.6870685,E,0.04,0.00,010122,0.0,E,A,V*46
$GNGGA,005442.00,3200.2321182,S,11553.6870685,E,1,12,1.0,66.892,M,-31.737,M,0.0,0000*52
$GNRMC,005512.00,A,3200.2323883,S,11553.6868540,E,0.04,0.00,010122,0.0,E,A,V*4B
$GNGGA,005512.00,3200.2323883,S,11553.6868540,E,1,12,1.0,65.232,M,-31.737,M,0.0,0000*5C
$GNRMC,005542.00,A,3200.2320885,S,11553.6869040,E,0.02,0.00,010122,0.0,E,A,V*49
$GNGGA,005542.00,3200.2320885,S,11553.6869040,E,1,12,1.0,65.653,M,-31.737,M,0.0,0000*5B
$GNRMC,005612.00,A,3200.2325313,S,11553.6870459,E,0.02,0.00,010122,0.0,E,A,V*4A
$GNGGA,005612.00,3200.2325313,S,11553.6870459,E,1,11,1.0,64.543,M,-31.737,M,0.0,0000*58
$GNRMC,005642.00,A,3200.2326117,S,11553.6868083,E,0.05,0.00,010122,0.0,E,A,V*47
$GNGGA,005642.00,3200.2326117,S,11553.6868083,E,1,11,1.0,63.081,M,-31.737,M,0.0,0000*5E
$GNRMC,005712.00,A,3200.2323018,S,11553.6867518,E,0.10,0.00,010122,0.0,E,A,V*44
$GNGGA,005712.00,3200.2323018,S,11553.6867518,E,1,11,1.0,63.556,M,-31.737,M,0.0,0000*56
$GNRMC,005742.00,A,3200.2327841,S,11553.6870143,E,0.03,0.00,010122,0.0,E,A,V*4F
$GNGGA,005742.00,3200.2327841,S,11553.6870143,E,1,11,1.0,63.035,M,-31.737,M,0.0,0000*5F
$GNRMC,005812.00,A,3200.2328725,S,11553.6866313,E,0.04,0.00,010122,0.0,E,A,V*40
$GNGGA,005812.00,3200.2328725,S,11553.6866313,E,1,11,1.0,62.433,M,-31.737,M,0.0,0000*54
$GNRMC,005842.00,A,3200.2324203,S,11553.6866627,E,0.06,0.00,010122,0.0,E,A,V*48
$GNGGA,005842.00,3200.2324203,S,11553.6866627,E,1,11,1.0,62.491,M,-31.737,M,0.0,0000*56
$GNRMC,005912.00,A,3200.2327466,S,11553.6868763,E,0.03,0.00,010122,0.0,E,A,V*40
$GNGGA,005912.00,3200.2327466,S,11553.6868763,E,1,11,1.0,63.913,M,-31.737,M,0.0,0000*5D
$GNRMC,005942.00,A,3200.2323781,S,11553.6867099,E,0.05,0.00,010122,0.0,E,A,V*40
$GNGGA,005942.00,3200.2323781,S,11553.6867099,E,1,11,1.0,63.073,M,-31.737,M,0.0,0000*54
$GNRMC,010012.00,A,3200.2323585,S,11553.6870505,E,0.06,0.00,010122,0.0,E,A,V*4B
$GNGGA,010012.00,3200.2323585,S,11553.6870505,E,1,11,1.0,64.378,M,-31.737,M,0.0,0000*53
$GNRMC,010042.00,A,3200.2324121,S,11553.6871383,E,0.03,0.00,010122,0.0,E,A,V*4F
$GNGGA,010042.00,3200.2324121,S,11553.6871383,E,1,11,1.0,65.620,M,-31.737,M,0.0,0000*5B
$GNRMC,010112.00,A,3200.2325872,S,11553.6869185,E,0.05,0.00,010122,0.0,E,A,V*4E
$GNGGA,010112.00,3200.2325872,S,11553.6869185,E,1,11,1.0,64.077,M,-31.737,M,0.0,0000*59
$GNRMC,010142.00,A,3200.2324039,S,11553.6869809,E,0.06,0.00,010122,0.0,E,A,V*43
$GNGGA,010142.00,3200.2324039,S,11553.6869809,E,1,11,1.0,64.797,M,-31.737,M,0.0,0000*5E
$GNRMC,010212.00,A,3200.2327242,S,11553.6870064,E,0.05,0.00,010122,0.0,E,A,V*40
$GNGGA,010212.00,3200.2327242,S,11553.6870064,E,1,11,1.0,64.437,M,-31.737,M,0.0,0000*57
$GNRMC,010242.00,A,3200.2321317,S,11553.6868511,E,0.06,0.00,010122,0.0,E,A,V*4F
$GNGGA,010242.00,3200.2321317,S,11553.6868511,E,1,11,1.0,65.342,M,-31.737,M,0.0,0000*5F
$GNRMC,010312.00,A,3200.2326596,S,11553.6867539,E,0.05,0.00,010122,0.0,E,A,V*45
$GNGGA,010312.00,3200.2326596,S,11553.6867539,E,1,11,1.0,64.363,M,-31.737,M,0.0,0000*54
$GNRMC,010342.00,A,3200.2327739,S,11553.6867505,E,0.04,0.00,010122,0.0,E,A,V*48
$GNGGA,010342.00,3200.2327739,S,11553.6867505,E,1,11,1.0,65.795,M,-31.737,M,0.0,0000*54
$GNRMC,010412.00,A,3200.2328344,S,11553.6868351,E,0.11,0.00,010122,0.0,E,A,V*47
$GNGGA,010412.00,3200.2328344,S,11553.6868351,E,1,11,1.0,65.808,M,-31.737,M,0.0,0000*54
$GNRMC,010442.00,A,3200.2324441,S,11553.6868818,E,0.04,0.00,010122,0.0,E,A,V*4E
$GNGGA,010442.00,3200.2324441,S,11553.6868818,E,1,11,1.0,65.935,M,-31.737,M,0.0,0000*56
$GNRMC,010512.00,A,3200.2326814,S,11553.6870232,E,0.02,0.00,010122,0.0,E,A,V*49
$GNGGA,010512.00,3200.2326814,S,11553.6870232,E,1,11,1.0,63.998,M,-31.737,M,0.0,0000*56
$GNRMC,010542.00,A,3200.2322900,S,11553.6877178,E,0.05,0.00,010122,0.0,E,A,V*41
$GNGGA,010542.00,3200.2322900,S,11553.6877178,E,1,12,1.0,69.076,M,-31.737,M,0.0,0000*59
$GNRMC,010612.00,A,3200.2323551,S,11553.6873680,E,0.05,0.00,010122,0.0,E,A,V*4A
$GNGGA,010612.00,3200.2323551,S,11553.6873680,E,1,12,1.0,68.614,M,-31.737,M,0.0,0000*51
$GNRMC,010642.00,A,3200.2322197,S,11553.6876721,E,0.08,0.00,010122,0.0,E,A,V*42
$GNGGA,010642.00,3200.2322197,S,11553.6876721,E,1,12,1.0,69.274,M,-31.737,M,0.0,0000*57
$GNRMC,010712.00,A,3200.2322827,S,11553.6879650,E,0.03,0.00,010122,0.0,E,A,V*47
$GNGGA,010712.00,3200.2322827,S,11553.6879650,E,1,12,1.0,68.890,M,-31.737,M,0.0,0000*58
$GNRMC,010742.00,A,3200.2323190,S,11553.6878151,E,0.04,0.00,010122,0.0,E,A,V*46
$GNGGA,010742.00,3200.2323190,S,11553.6878151,E,1,12,1.0,68.642,M,-31.737,M,0.0,0000*5F
$GNRMC,010812.00,A,3200.2329973,S,11553.6877424,E,0.07,0.00,010122,0.0,E,A,V*48
$GNGGA,010812.00,3200.2329973,S,11553.6877424,E,1,12,1.0,68.779,M,-31.737,M,0.0,0000*5B
$GNRMC,010842.00,A,3200.2328458,S,11553.6873008,E,0.09,0.00,010122,0.0,E,A,V*48
$GNGGA,010842.00,3200.2328458,S,11553.6873008,E,1,12,1.0,69.549,M,-31.737,M,0.0,0000*55
$GNRMC,010912.00,A,3200.2325882,S,11553.6874795,E,0.04,0.00,010122,0.0,E,A,V*43
$GNGGA,010912.00,3200.2325882,S,11553.6874795,E,1,12,1.0,68.101,M,-31.737,M,0.0,0000*5A
$GNRMC,010942.00,A,3200.2322777,S,11553.6874403,E,0.03,0.00,010122,0.0,E,A,V*4F
$GNGGA,010942.00,3200.2322777,S,11553.6874403,E,1,12,1.0,67.908,M,-31.737,M,0.0,0000*5F
$GNRMC,011012.00,A,3200.2326841,S,11553.6876306,E,0.04,0.00,010122,0.0,E,A,V*4B
$GNGGA,011012.00,3200.2326841,S,11553.6876306,E,1,12,1.0,68.645,M,-31.737,M,0.0,0000*55
$GNRMC,011042.00,A,3200.2328250,S,11553.6872280,E,0.03,0.00,010122,0.0,E,A,V*46
$GNGGA,011042.00,3200.2328250,S,11553.6872280,E,1,12,1.0,68.515,M,-31.737,M,0.0,0000*59
$GNRMC,011112.00,A,3200.2327965,S,11553.6875820,E,0.02,0.00,010122,0.0,E,A,V*46
$GNGGA,011112.00,3200.2327965,S,11553.6875820,E,1,12,1.0,68.820,M,-31.737,M,0.0,0000*53
$GNRMC,011142.00,A,3200.2327441,S,11553.6872714,E,0.05,0.00,010122,0.0,E,A,V*40
$GNGGA,011142.00,3200.2327441,S,11553.6872714,E,1,12,1.0,68.459,M,-31.737,M,0.0,0000*50
$GNRMC,011212.00,A,3200.2322920,S,11553.6874312,E,0.10,0.00,010122,0.0,E,A,V*49
$GNGGA,011212.00,3200.2322920,S,11553.6874312,E,1,12,1.0,67.520,M,-31.737,M,0.0,0000*5D
$GNRMC,011242.00,A,3200.2323507,S,11553.6873741,E,0.03,0.00,010122,0.0,E,A,V*43
$GNGGA,011242.00,3200.2323507,S,11553.6873741,E,1,12,1.0,68.480,M,-31.737,M,0.0,0000*51
$GNRMC,011312.00,A,3200.2326790,S,11553.6873666,E,0.04,0.00,010122,0.0,E,A,V*4D
$GNGGA,011312.00,3200.2326790,S,11553.6873666,E,1,12,1.0,68.056,M,-31.737,M,0.0,0000*57
$GNRMC,011342.00,A,3200.2325341,S,11553.6878124,E,0.02,0.00,010122,0.0,E,A,V*4F
$GNGGA,011342.00,3200.2325341,S,11553.6878124,E,1,12,1.0,69.348,M,-31.737,M,0.0,0000*5E
$GNRMC,011412.00,A,3200.2332358,S,11553.6875602,E,0.01,0.00,010122,0.0,E,A,V*4E
$GNGGA,011412.00,3200.2332358,S,11553.6875602,E,1,12,1.0,69.321,M,-31.737,M,0.0,0000*53
$GNRMC,011442.00,A,3200.2329238,S,11553.6877211,E,0.04,0.00,010122,0.0,E,A,V*47
$GNGGA,011442.00,3200.2329238,S,11553.6877211,E,1,12,1.0,67.851,M,-31.737,M,0.0,0000*5D
$GNRMC,011512.00,A,3200.2325688,S,11553.6876494,E,0.01,0.00,010122,0.0,E,A,V*4F
$GNGGA,011512.00,3200.2325688,S,11553.6876494,E,1,12,1.0,69.230,M,-31.737,M,0.0,0000*53
$GNRMC,011542.00,A,3200.2328986,S,11553.6877200,E,0.03,0.00,010122,0.0,E,A,V*4E
$GNGGA,011542.00,3200.2328986,S,11553.6877200,E,1,12,1.0,68.827,M,-31.737,M,0.0,0000*5D
$GNRMC,011612.00,A,3200.2328443,S,11553.6874140,E,0.02,0.00,010122,0.0,E,A,V*49
$GNGGA,011612.00,3200.2328443,S,11553.6874140,E,1,12,1.0,69.726,M,-31.737,M,0.0,0000*54
$GNRMC,011642.00,A,3200.2328876,S,11553.6876080,E,0.03,0.00,010122,0.0,E,A,V*48
$GNGGA,011642.00,3200.2328876,S,11553.6876080,E,1,12,1.0,69.046,M,-31.737,M,0.0,0000*55
$GNRMC,011712.00,A,3200.2329209,S,11553.6875132,E,0.01,0.00,010122,0.0,E,A,V*46
$GNGGA,011712.00,3200.2329209,S,11553.6875132,E,1,12,1.0,68.356,M,-31.737,M,0.0,0000*5A
$GNRMC,011742.00,A,3200.2327955,S,11553.6875557,E,0.05,0.00,010122,0.0,E,A,V*4C
$GNGGA,011742.00,3200.2327955,S,11553.6875557,E,1,12,1.0,69.423,M,-31.737,M,0.0,0000*50
$GNRMC,011812.00,A,3200.2327334,S,11553.6875043,E,0.04,0.00,010122,0.0,E,A,V*4A
$GNGGA,011812.00,3200.2327334,S,11553.6875043,E,1,12,1.0,69.714,M,-31.737,M,0.0,0000*50
$GNRMC,011842.00,A,3200.2324757,S,11553.6870855,E,0.03,0.00,010122,0.0,E,A,V*40
$GNGGA,011842.00,3200.2324757,S,11553.6870855,E,1,12,1.0,68.488,M,-31.737,M,0.0,0000*5A
$GNRMC,011912.00,A,3200.2329265,S,11553.6872793,E,0.04,0.00,010122,0.0,E,A,V*4D
$GNGGA,011912.00,3200.2329265,S,11553.6872793,E,1,12,1.0,69.054,M,-31.737,M,0.0,0000*54
$GNRMC,011942.00,A,3200.2327347,S,11553.6876637,E,0.07,0.00,010122,0.0,E,A,V*4F
$GNGGA,011942.00,3200.2327347,S,11553.6876637,E,1,12,1.0,69.102,M,-31.737,M,0.0,0000*57
$GNRMC,012012.00,A,3200.2329525,S,11553.6870472,E,0.05,0.00,010122,0.0,E,A,V*4B
$GNGGA,012012.00,3200.2329525,S,11553.6870472,E,1,12,1.0,67.917,M,-31.737,M,0.0,0000*53
$GNRMC,012042.00,A,3200.2328345,S,11553.6874254,E,0.02,0.00,010122,0.0,E,A,V*4E
$GNGGA,012042.00,3200.2328345,S,11553.6874254,E,1,12,1.0,69.085,M,-31.737,M,0.0,0000*5D
$GNRMC,012112.00,A,3200.2332159,S,11553.6876985,E,0.07,0.00,010122,0.0,E,A,V*4E
$GNGGA,012112.00,3200.2332159,S,11553.6876985,E,1,12,1.0,70.421,M,-31.737,M,0.0,0000*5A
$GNRMC,012142.00,A,3200.2328463,S,11553.6868719,E,0.02,0.00,010122,0.0,E,A,V*4D
$GNGGA,012142.00,3200.2328463,S,11553.6868719,E,1,12,1.0,66.118,M,-31.737,M,0.0,0000*54
$GNRMC,012212.00,A,3200.2334384,S,11553.6880176,E,0.05,0.00,010122,0.0,E,A,V*46
$GNGGA,012212.00,3200.2334384,S,11553.6880176,E,1,12,1.0,70.165,M,-31.737,M,0.0,0000*55
$GNRMC,012242.00,A,3200.2331015,S,11553.6875700,E,0.06,0.00,010122,0.0,E,A,V*43
$GNGGA,012242.00,3200.2331015,S,11553.6875700,E,1,12,1.0,68.740,M,-31.737,M,0.0,0000*5B
$GNRMC,012312.00,A,3200.2328999,S,11553.6874749,E,0.04,0.00,010122,0.0,E,A,V*4C
$GNGGA,012312.00,3200.2328999,S,11553.6874749,E,1,12,1.0,67.753,M,-31.737,M,0.0,0000*5B
$GNRMC,012342.00,A,3200.2325610,S,11553.6877443,E,0.02,0.00,010122,0.0,E,A,V*46
$GNGGA,012342.00,3200.2325610,S,11553.6877443,E,1,12,1.0,71.111,M,-31.737,M,0.0,0000*50
$GNRMC,012412.00,A,3200.2329759,S,11553.6872690,E,0.01,0.00,010122,0.0,E,A,V*4E
$GNGGA,012412.00,3200.2329759,S,11553.6872690,E,1,12,1.0,69.918,M,-31.737,M,0.0,0000*53
$GNRMC,012442.00,A,3200.2327613,S,11553.6873824,E,0.03,0.00,010122,0.0,E,A,V*48
$GNGGA,012442.00,3200.2327613,S,11553.6873824,E,1,12,1.0,70.026,M,-31.737,M,0.0,0000*5B
$GNRMC,012512.00,A,3200.2326944,S,11553.6871879,E,0.02,0.00,010122,0.0,E,A,V*4B
$GNGGA,012512.00,3200.2326944,S,11553.6871879,E,1,12,1.0,70.128,M,-31.737,M,0.0,0000*56
$GNRMC,012542.00,A,3200.2333945,S,11553.6874759,E,0.02,0.00,010122,0.0,E,A,V*43
$GNGGA,012542.00,3200.2333945,S,11553.6874759,E,1,11,1.0,67.225,M,-31.737,M,0.0,0000*55
$GNRMC,012612.00,A,3200.2329552,S,11553.6874941,E,0.03,0.00,010122,0.0,E,A,V*42
$GNGGA,012612.00,3200.2329552,S,11553.6874941,E,1,11,1.0,68.688,M,-31.737,M,0.0,0000*59
$GNRMC,012642.00,A,3200.2336335,S,11553.6875260,E,0.06,0.00,010122,0.0,E,A,V*42
$GNGGA,012642.00,3200.2336335,S,11553.6875260,E,1,11,1.0,70.650,M,-31.737,M,0.0,0000*50
$GNRMC,012712.00,A,3200.2333573,S,11553.6874205,E,0.04,0.00,010122,0.0,E,A,V*47
$GNGGA,012712.00,3200.2333573,S,11553.6874205,E,1,11,1.0,70.424,M,-31.737,M,0.0,0000*56
$GNRMC,012742.00,A,3200.2335022,S,11553.6877227,E,0.04,0.00,010122,0.0,E,A,V*46
$GNGGA,012742.00,3200.2335022,S,11553.6877227,E,1,11,1.0,68.148,M,-31.737,M,0.0,0000*51
$GNRMC,012812.00,A,3200.2336221,S,11553.6874228,E,0.07,0.00,010122,0.0,E,A,V*41
$GNGGA,012812.00,3200.2336221,S,11553.6874228,E,1,11,1.0,69.106,M,-31.737,M,0.0,0000*5E
$GNRMC,012842.00,A,3200.2334857,S,11553.6878228,E,0.04,0.00,010122,0.0,E,A,V*42
$GNGGA,012842.00,3200.2334857,S,11553.6878228,E,1,11,1.0,70.511,M,-31.737,M,0.0,0000*54
$GNRMC,012912.00,A,3200.2324270,S,11553.6874487,E,0.01,0.00,010122,0.0,E,A,V*42
$GNGGA,012912.00,3200.2324270,S,11553.6874487,E,1,10,1.0,66.231,M,-31.737,M,0.0,0000*52
$GNRMC,012942.00,A,3200.2328286,S,11553.6868607,E,0.05,0.00,010122,0.0,E,A,V*41
$GNGGA,012942.00,3200.2328286,S,11553.6868607,E,1,10,1.0,67.040,M,-31.737,M,0.0,0000*50
$GNRMC,013012.00,A,3200.2319473,S,11553.6875261,E,0.06,0.00,010122,0.0,E,A,V*49
$GNGGA,013012.00,3200.2319473,S,11553.6875261,E,1,10,1.0,64.379,M,-31.737,M,0.0,0000*51
$GNRMC,013042.00,A,3200.2323509,S,11553.6870978,E,0.02,0.00,010122,0.0,E,A,V*4B
$GNGGA,013042.00,3200.2323509,S,11553.6870978,E,1,10,1.0,66.681,M,-31.737,M,0.0,0000*57
$GNRMC,013112.00,A,3200.2325584,S,11553.6873640,E,0.06,0.00,010122,0.0,E,A,V*4F
$GNGGA,013112.00,3200.2325584,S,11553.6873640,E,1,10,1.0,64.899,M,-31.737,M,0.0,0000*52
$GNRMC,013142.00,A,3200.2326378,S,11553.6874928,E,0.03,0.00,010122,0.0,E,A,V*4F
$GNGGA,013142.00,3200.2326378,S,11553.6874928,E,1,10,1.0,66.681,M,-31.737,M,0.0,0000*52
$GNRMC,013212.00,A,3200.2323444,S,11553.6869362,E,0.02,0.00,010122,0.0,E,A,V*4D
$GNGGA,013212.00,3200.2323444,S,11553.6869362,E,1,10,1.0,66.383,M,-31.737,M,0.0,0000*56
$GNRMC,013242.00,A,3200.2322799,S,11553.6870711,E,0.03,0.00,010122,0.0,E,A,V*43
$GNGGA,013242.00,3200.2322799,S,11553.6870711,E,1,10,1.0,63.967,M,-31.737,M,0.0,0000*5C
$GNRMC,013312.00,A,3200.2325183,S,11553.6874076,E,0.02,0.00,010122,0.0,E,A,V*4E
$GNGGA,013312.00,3200.2325183,S,11553.6874076,E,1,10,1.0,66.420,M,-31.737,M,0.0,0000*5B
$GNRMC,013342.00,A,3200.2323967,S,11553.6868905,E,0.05,0.00,010122,0.0,E,A,V*48
$GNGGA,013342.00,3200.2323967,S,11553.6868905,E,1,10,1.0,66.527,M,-31.737,M,0.0,0000*5C
$GNRMC,013412.00,A,3200.2319001,S,11553.6873714,E,0.03,0.00,010122,0.0,E,A,V*48
$GNGGA,013412.00,3200.2319001,S,11553.6873714,E,1,10,1.0,64.816,M,-31.737,M,0.0,0000*57
$GNRMC,013442.00,A,3200.2321756,S,11553.6873354,E,0.06,0.00,010122,0.0,E,A,V*46
$GNGGA,013442.00,3200.2321756,S,11553.6873354,E,1,10,1.0,65.652,M,-31.737,M,0.0,0000*53
$GNRMC,013512.00,A,3200.2321439,S,11553.6868375,E,0.03,0.00,010122,0.0,E,A,V*44
$GNGGA,013512.00,3200.2321439,S,11553.6868375,E,1,10,1.0,63.941,M,-31.737,M,0.0,0000*5F
$GNRMC,013542.00,A,3200.2323146,S,11553.6871745,E,0.06,0.00,010122,0.0,E,A,V*44
$GNGGA,013542.00,3200.2323146,S,11553.6871745,E,1,10,1.0,63.627,M,-31.737,M,0.0,0000*55
$GNRMC,013612.00,A,3200.2325605,S,11553.6871069,E,0.07,0.00,010122,0.0,E,A,V*4C
$GNGGA,013612.00,3200.2325605,S,11553.6871069,E,1,10,1.0,65.661,M,-31.737,M,0.0,0000*58
$GNRMC,013642.00,A,3200.2327217,S,11553.6876384,E,0.02,0.00,010122,0.0,E,A,V*4E
$GNGGA,013642.00,3200.2327217,S,11553.6876384,E,1,10,1.0,67.150,M,-31.737,M,0.0,0000*58
$GNRMC,013712.00,A,3200.2327730,S,11553.6874748,E,0.07,0.00,010122,0.0,E,A,V*49
$GNGGA,013712.00,3200.2327730,S,11553.6874748,E,1,10,1.0,65.778,M,-31.737,M,0.0,0000*54
$GNRMC,013742.00,A,3200.2332532,S,11553.6873427,E,0.07,0.00,010122,0.0,E,A,V*45
$GNGGA,013742.00,3200.2332532,S,11553.6873427,E,1,10,1.0,65.909,M,-31.737,M,0.0,0000*50
$GNRMC,013812.00,A,3200.2330025,S,11553.6874552,E,0.04,0.00,010122,0.0,E,A,V*49
$GNGGA,013812.00,3200.2330025,S,11553.6874552,E,1,10,1.0,67.312,M,-31.737,M,0.0,0000*5D
$GNRMC,013842.00,A,3200.2330390,S,11553.6873490,E,0.03,0.00,010122,0.0,E,A,V*4E
$GNGGA,013842.00,3200.2330390,S,11553.6873490,E,1,10,1.0,65.927,M,-31.737,M,0.0,0000*53
$GNRMC,013912.00,A,3200.2331911,S,11553.6871254,E,0.02,0.00,010122,0.0,E,A,V*45
$GNGGA,013912.00,3200.2331911,S,11553.6871254,E,1,10,1.0,66.785,M,-31.737,M,0.0,0000*5C
$GNRMC,013942.00,A,3200.2330310,S,11553.6874255,E,0.03,0.00,010122,0.0,E,A,V*4F
$GNGGA,013942.00,3200.2330310,S,11553.6874255,E,1,10,1.0,66.012,M,-31.737,M,0.0,0000*5E
$GNRMC,014012.00,A,3200.2339875,S,11553.6877615,E,0.06,0.00,010122,0.0,E,A,V*43
$GNGGA,014012.00,3200.2339875,S,11553.6877615,E,1,11,1.0,70.053,M,-31.737,M,0.0,0000*54
$GNRMC,014042.00,A,3200.2338569,S,11553.6878598,E,0.07,0.00,010122,0.0,E,A,V*4F
$GNGGA,014042.00,3200.2338569,S,11553.6878598,E,1,11,1.0,70.363,M,-31.737,M,0.0,0000*59
$GNRMC,014112.00,A,3200.2340461,S,11553.6877238,E,0.07,0.00,010122,0.0,E,A,V*4F
$GNGGA,014112.00,3200.2340461,S,11553.6877238,E,1,11,1.0,69.988,M,-31.737,M,0.0,0000*5E
$GNRMC,014142.00,A,3200.2337070,S,11553.6874985,E,0.02,0.00,010122,0.0,E,A,V*45
$GNGGA,014142.00,3200.2337070,S,11553.6874985,E,1,11,1.0,69.411,M,-31.737,M,0.0,0000*5C
$GNRMC,014212.00,A,3200.2339111,S,11553.6875534,E,0.05,0.00,010122,0.0,E,A,V*4B
$GNGGA,014212.00,3200.2339111,S,11553.6875534,E,1,11,1.0,69.757,M,-31.737,M,0.0,0000*54
$GNRMC,014242.00,A,3200.2337324,S,11553.6876826,E,0.08,0.00,010122,0.0,E,A,V*44
$GNGGA,014242.00,3200.2337324,S,11553.6876826,E,1,11,1.0,70.047,M,-31.737,M,0.0,0000*58
$GNRMC,014312.00,A,3200.2337641,S,11553.6873562,E,0.05,0.00,010122,0.0,E,A,V*43
$GNGGA,014312.00,3200.2337641,S,11553.6873562,E,1,11,1.0,69.416,M,-31.737,M,0.0,0000*5A
$GNRMC,014342.00,A,3200.2342248,S,11553.6874451,E,0.02,0.00,010122,0.0,E,A,V*48
$GNGGA,014342.00,3200.2342248,S,11553.6874451,E,1,11,1.0,69.572,M,-31.737,M,0.0,0000*55
$GNRMC,014412.00,A,3200.2343196,S,11553.6872406,E,0.03,0.00,010122,0.0,E,A,V*4E
$GNGGA,014412.00,3200.2343196,S,11553.6872406,E,1,11,1.0,68.937,M,-31.737,M,0.0,0000*5E
$GNRMC,014442.00,A,3200.2338666,S,11553.6877486,E,0.01,0.00,010122,0.0,E,A,V*40
$GNGGA,014442.00,3200.2338666,S,11553.6877486,E,1,11,1.0,69.618,M,-31.737,M,0.0,0000*51
$GNRMC,014512.00,A,3200.2341343,S,11553.6873011,E,0.02,0.00,010122,0.0,E,A,V*45
$GNGGA,014512.00,3200.2341343,S,11553.6873011,E,1,11,1.0,68.135,M,-31.737,M,0.0,0000*5E
$GNRMC,014542.00,A,3200.2340346,S,11553.6870040,E,0.01,0.00,010122,0.0,E,A,V*40
$GNGGA,014542.00,3200.2340346,S,11553.6870040,E,1,11,1.0,69.178,M,-31.737,M,0.0,0000*50
$GNRMC,014612.00,A,3200.2337468,S,11553.6872624,E,0.04,0.00,010122,0.0,E,A,V*4E
$GNGGA,014612.00,3200.2337468,S,11553.6872624,E,1,11,1.0,69.366,M,-31.737,M,0.0,0000*56
$GNRMC,014642.00,A,3200.2339753,S,11553.6870137,E,0.02,0.00,010122,0.0,E,A,V*4F
$GNGGA,014642.00,3200.2339753,S,11553.6870137,E,1,11,1.0,68.267,M,-31.737,M,0.0,0000*50
$GNRMC,014712.00,A,3200.2339959,S,11553.6868223,E,0.06,0.00,010122,0.0,E,A,V*44
$GNGGA,014712.00,3200.2339959,S,11553.6868223,E,1,11,1.0,68.880,M,-31.737,M,0.0,0000*5C
$GNRMC,014742.00,A,3200.2336042,S,11553.6872223,E,0.01,0.00,010122,0.0,E,A,V*41
$GNGGA,014742.00,3200.2336042,S,11553.6872223,E,1,11,1.0,68.783,M,-31.737,M,0.0,0000*52
$GNRMC,014812.00,A,3200.2340188,S,11553.6870869,E,0.05,0.00,010122,0.0,E,A,V*4F
$GNGGA,014812.00,3200.2340188,S,11553.6870869,E,1,11,1.0,67.809,M,-31.737,M,0.0,0000*5A
$GNRMC,014842.00,A,3200.2338914,S,11553.6877073,E,0.04,0.00,010122,0.0,E,A,V*4D
$GNGGA,014842.00,3200.2338914,S,11553.6877073,E,1,11,1.0,70.451,M,-31.737,M,0.0,0000*5E
$GNRMC,014912.00,A,3200.2339647,S,11553.6871644,E,0.07,0.00,010122,0.0,E,A,V*46
$GNGGA,014912.00,3200.2339647,S,11553.6871644,E,1,11,1.0,70.511,M,-31.737,M,0.0,0000*53
$GNRMC,014942.00,A,3200.2337137,S,11553.6873440,E,0.04,0.00,010122,0.0,E,A,V*4A
$GNGGA,014942.00,3200.2337137,S,11553.6873440,E,1,11,1.0,70.072,M,-31.737,M,0.0,0000*5C
$GNRMC,015012.00,A,3200.2341330,S,11553.6874702,E,0.02,0.00,010122,0.0,E,A,V*47
$GNGGA,015012.00,3200.2341330,S,11553.6874702,E,1,11,1.0,70.907,M,-31.737,M,0.0,0000*5C
$GNRMC,015042.00,A,3200.2338999,S,11553.6873416,E,0.03,0.00,010122,0.0,E,A,V*45
$GNGGA,015042.00,3200.2338999,S,11553.6873416,E,1,11,1.0,67.715,M,-31.737,M,0.0,0000*54
$GNRMC,015112.00,A,3200.2339669,S,11553.6874343,E,0.03,0.00,010122,0.0,E,A,V*40
$GNGGA,015112.00,3200.2339669,S,11553.6874343,E,1,11,1.0,68.626,M,-31.737,M,0.0,0000*5F
$GNRMC,015142.00,A,3200.2341205,S,11553.6873199,E,0.03,0.00,010122,0.0,E,A,V*46
$GNGGA,015142.00,3200.2341205,S,11553.6873199,E,1,11,1.0,69.140,M,-31.737,M,0.0,0000*5F
$GNRMC,015212.00,A,3200.2336178,S,11553.6871011,E,0.04,0.00,010122,0.0,E,A,V*4D
$GNGGA,015212.00,3200.2336178,S,11553.6871011,E,1,11,1.0,69.114,M,-31.737,M,0.0,0000*52
$GNRMC,015242.00,A,3200.2335924,S,11553.6874672,E,0.04,0.00,010122,0.0,E,A,V*4C
$GNGGA,015242.00,3200.2335924,S,11553.6874672,E,1,11,1.0,70.467,M,-31.737,M,0.0,0000*5A
$GNRMC,015312.00,A,3200.2342308,S,11553.6875519,E,0.05,0.00,010122,0.0,E,A,V*42
$GNGGA,015312.00,3200.2342308,S,11553.6875519,E,1,12,1.0,68.407,M,-31.737,M,0.0,0000*59
$GNRMC,015342.00,A,3200.2335396,S,11553.6878893,E,0.01,0.00,010122,0.0,E,A,V*46
$GNGGA,015342.00,3200.2335396,S,11553.6878893,E,1,12,1.0,71.593,M,-31.737,M,0.0,0000*5D
$GNRMC,015412.00,A,3200.2339359,S,11553.6873797,E,0.04,0.00,010122,0.0,E,A,V*4E
$GNGGA,015412.00,3200.2339359,S,11553.6873797,E,1,12,1.0,69.663,M,-31.737,M,0.0,0000*55
$GNRMC,015442.00,A,3200.2339082,S,11553.6875146,E,0.02,0.00,010122,0.0,E,A,V*44
$GNGGA,015442.00,3200.2339082,S,11553.6875146,E,1,12,1.0,71.289,M,-31.737,M,0.0,0000*50
$GNRMC,015512.00,A,3200.2337503,S,11553.6872682,E,0.05,0.00,010122,0.0,E,A,V*4D
$GNGGA,015512.00,3200.2337503,S,11553.6872682,E,1,12,1.0,70.123,M,-31.737,M,0.0,0000*5C
$GNRMC,015542.00,A,3200.2339696,S,11553.6871782,E,0.04,0.00,010122,0.0,E,A,V*4A
$GNGGA,015542.00,3200.2339696,S,11553.6871782,E,1,12,1.0,70.058,M,-31.737,M,0.0,0000*57
$GNRMC,015612.00,A,3200.2337180,S,11553.6874989,E,0.05,0.00,010122,0.0,E,A,V*43
$GNGGA,015612.00,3200.2337180,S,11553.6874989,E,1,12,1.0,70.283,M,-31.737,M,0.0,0000*5B
$GNRMC,015642.00,A,3200.2339437,S,11553.6874434,E,0.05,0.00,010122,0.0,E,A,V*4A
$GNGGA,015642.00,3200.2339437,S,11553.6874434,E,1,12,1.0,70.061,M,-31.737,M,0.0,0000*5C
$GNRMC,015712.00,A,3200.2340483,S,11553.6873067,E,0.02,0.00,010122,0.0,E,A,V*4D
$GNGGA,015712.00,3200.2340483,S,11553.6873067,E,1,12,1.0,70.359,M,-31.737,M,0.0,0000*54
$GNRMC,015742.00,A,3200.2337777,S,11553.6876642,E,0.05,0.00,010122,0.0,E,A,V*43
$GNGGA,015742.00,3200.2337777,S,11553.6876642,E,1,11,1.0,68.336,M,-31.737,M,0.0,0000*5E
$GNRMC,015812.00,A,3200.2335361,S,11553.6876854,E,0.03,0.00,010122,0.0,E,A,V*47
$GNGGA,015812.00,3200.2335361,S,11553.6876854,E,1,11,1.0,69.096,M,-31.737,M,0.0,0000*54
$GNRMC,015842.00,A,3200.2338157,S,11553.6873001,E,0.05,0.00,010122,0.0,E,A,V*43
$GNGGA,015842.00,3200.2338157,S,11553.6873001,E,1,11,1.0,69.517,M,-31.737,M,0.0,0000*5A
$GNRMC,015912.00,A,3200.2333112,S,11553.6875579,E,0.02,0.00,010122,0.0,E,A,V*46
$GNGGA,015912.00,3200.2333112,S,11553.6875579,E,1,11,1.0,68.550,M,-31.737,M,0.0,0000*5A
$GNRMC,015942.00,A,3200.2339229,S,11553.6875196,E,0.10,0.00,010122,0.0,E,A,V*44
$GNGGA,015942.00,3200.2339229,S,11553.6875196,E,1,11,1.0,68.843,M,-31.737,M,0.0,0000*54
$GNRMC,020012.00,A,3200.2334048,S,11553.6878875,E,0.04,0.00,010122,0.0,E,A,V*4A
$GNGGA,020012.00,3200.2334048,S,11553.6878875,E,1,11,1.0,69.409,M,-31.737,M,0.0,0000*5C
$GNRMC,020042.00,A,3200.2333907,S,11553.6878540,E,0.05,0.00,010122,0.0,E,A,V*40
$GNGGA,020042.00,3200.2333907,S,11553.6878540,E,1,11,1.0,68.599,M,-31.737,M,0.0,0000*5E
$GNRMC,020112.00,A,3200.2335317,S,11553.6873523,E,0.03,0.00,010122,0.0,E,A,V*41
$GNGGA,020112.00,3200.2335317,S,11553.6873523,E,1,11,1.0,68.745,M,-31.737,M,0.0,0000*5A
$GNRMC,020142.00,A,3200.2334635,S,11553.6875006,E,0.03,0.00,010122,0.0,E,A,V*44
$GNGGA,020142.00,3200.2334635,S,11553.6875006,E,1,11,1.0,67.692,M,-31.737,M,0.0,0000*5B
$GNRMC,020212.00,A,3200.2331314,S,11553.6876291,E,0.03,0.00,010122,0.0,E,A,V*4E
$GNGGA,020212.00,3200.2331314,S,11553.6876291,E,1,11,1.0,68.156,M,-31.737,M,0.0,0000*51
$GNRMC,020242.00,A,3200.2332344,S,11553.6875545,E,0.03,0.00,010122,0.0,E,A,V*40
$GNGGA,020242.00,3200.2332344,S,11553.6875545,E,1,11,1.0,68.415,M,-31.737,M,0.0,0000*5D
$GNRMC,020312.00,A,3200.2328042,S,11553.6880021,E,0.03,0.00,010122,0.0,E,A,V*47
$GNGGA,020312.00,3200.2328042,S,11553.6880021,E,1,12,1.0,69.941,M,-31.737,M,0.0,0000*54
$GNRMC,020342.00,A,3200.2331111,S,11553.6881975,E,0.02,0.00,010122,0.0,E,A,V*45
$GNGGA,020342.00,3200.2331111,S,11553.6881975,E,1,12,1.0,69.082,M,-31.737,M,0.0,0000*51
$GNRMC,020412.00,A,3200.2329322,S,11553.6873002,E,0.01,0.00,010122,0.0,E,A,V*4B
$GNGGA,020412.00,3200.2329322,S,11553.6873002,E,1,12,1.0,68.637,M,-31.737,M,0.0,0000*55
$GNRMC,020442.00,A,3200.2332914,S,11553.6873129,E,0.05,0.00,010122,0.0,E,A,V*47
$GNGGA,020442.00,3200.2332914,S,11553.6873129,E,1,12,1.0,69.573,M,-31.737,M,0.0,0000*5F
$GNRMC,020512.00,A,3200.2332938,S,11553.6873257,E,0.01,0.00,010122,0.0,E,A,V*43
$GNGGA,020512.00,3200.2332938,S,11553.6873257,E,1,12,1.0,69.209,M,-31.737,M,0.0,0000*55
$GNRMC,020542.00,A,3200.2329472,S,11553.6875016,E,0.06,0.00,010122,0.0,E,A,V*49
$GNGGA,020542.00,3200.2329472,S,11553.6875016,E,1,12,1.0,68.066,M,-31.737,M,0.0,0000*52
$GNRMC,020612.00,A,3200.2330946,S,11553.6873317,E,0.02,0.00,010122,0.0,E,A,V*4D
$GNGGA,020612.00,3200.2330946,S,11553.6873317,E,1,12,1.0,68.580,M,-31.737,M,0.0,0000*5F
$GNRMC,020642.00,A,3200.2329754,S,11553.6879332,E,0.04,0.00,010122,0.0,E,A,V*46
$GNGGA,020642.00,3200.2329754,S,11553.6879332,E,1,12,1.0,69.442,M,-31.737,M,0.0,0000*5C
$GNRMC,020712.00,A,3200.2329016,S,11553.6880647,E,0.03,0.00,010122,0.0,E,A,V*45
$GNGGA,020712.00,3200.2329016,S,11553.6880647,E,1,12,1.0,69.118,M,-31.737,M,0.0,0000*52
$GNRMC,020742.00,A,3200.2331495,S,11553.6875093,E,0.04,0.00,010122,0.0,E,A,V*44
$GNGGA,020742.00,3200.2331495,S,11553.6875093,E,1,12,1.0,68.345,M,-31.737,M,0.0,0000*5F
$GNRMC,020812.00,A,3200.2334297,S,11553.6869653,E,0.07,0.00,010122,0.0,E,A,V*4B
$GNGGA,020812.00,3200.2334297,S,11553.6869653,E,1,12,1.0,68.643,M,-31.737,M,0.0,0000*50
$GNRMC,020842.00,A,3200.2329070,S,11553.6872815,E,0.04,0.00,010122,0.0,E,A,V*4C
$GNGGA,020842.00,3200.2329070,S,11553.6872815,E,1,11,1.0,68.708,M,-31.737,M,0.0,0000*59
$GNRMC,020912.00,A,3200.2331866,S,11553.6871932,E,0.03,0.00,010122,0.0,E,A,V*4E
$GNGGA,020912.00,3200.2331866,S,11553.6871932,E,1,11,1.0,68.163,M,-31.737,M,0.0,0000*57
$GNRMC,020942.00,A,3200.2328525,S,11553.6874751,E,0.02,0.00,010122,0.0,E,A,V*46
$GNGGA,020942.00,3200.2328525,S,11553.6874751,E,1,12,1.0,68.294,M,-31.737,M,0.0,0000*56
$GNRMC,021012.00,A,3200.2327763,S,11553.6873768,E,0.08,0.00,010122,0.0,E,A,V*43
$GNGGA,021012.00,3200.2327763,S,11553.6873768,E,1,12,1.0,68.825,M,-31.737,M,0.0,0000*59
$GNRMC,021042.00,A,3200.2329815,S,11553.6876643,E,0.04,0.00,010122,0.0,E,A,V*47
$GNGGA,021042.00,3200.2329815,S,11553.6876643,E,1,12,1.0,68.076,M,-31.737,M,0.0,0000*5F
$GNRMC,021112.00,A,3200.2330842,S,11553.6870608,E,0.02,0.00,010122,0.0,E,A,V*46
$GNGGA,021112.00,3200.2330842,S,11553.6870608,E,1,12,1.0,68.554,M,-31.737,M,0.0,0000*5D
$GNRMC,021142.00,A,3200.2330367,S,11553.6875507,E,0.02,0.00,010122,0.0,E,A,V*46
$GNGGA,021142.00,3200.2330367,S,11553.6875507,E,1,12,1.0,67.847,M,-31.737,M,0.0,0000*5D
$GNRMC,021212.00,A,3200.2328649,S,11553.6878517,E,0.04,0.00,010122,0.0,E,A,V*4A
$GNGGA,021212.00,3200.2328649,S,11553.6878517,E,1,13,1.0,67.259,M,-31.737,M,0.0,0000*53
$GNRMC,021242.00,A,3200.2335526,S,11553.6881638,E,0.04,0.00,010122,0.0,E,A,V*41
$GNGGA,021242.00,3200.2335526,S,11553.6881638,E,1,13,1.0,68.838,M,-31.737,M,0.0,0000*5A
$GNRMC,021312.00,A,3200.2329602,S,11553.6879815,E,0.04,0.00,010122,0.0,E,A,V*4B
$GNGGA,021312.00,3200.2329602,S,11553.6879815,E,1,13,1.0,69.156,M,-31.737,M,0.0,0000*50
$GNRMC,021342.00,A,3200.2332469,S,11553.6878939,E,0.03,0.00,010122,0.0,E,A,V*42
$GNGGA,021342.00,3200.2332469,S,11553.6878939,E,1,13,1.0,68.600,M,-31.737,M,0.0,0000*5B
$GNRMC,021412.00,A,3200.2333999,S,11553.6874543,E,0.01,0.00,010122,0.0,E,A,V*4C
$GNGGA,021412.00,3200.2333999,S,11553.6874543,E,1,13,1.0,68.259,M,-31.737,M,0.0,0000*5F
$GNRMC,021442.00,A,3200.2331157,S,11553.6876881,E,0.03,0.00,010122,0.0,E,A,V*42
$GNGGA,021442.00,3200.2331157,S,11553.6876881,E,1,13,1.0,69.087,M,-31.737,M,0.0,0000*53
$GNRMC,021512.00,A,3200.2328207,S,11553.6877956,E,0.04,0.00,010122,0.0,E,A,V*45
$GNGGA,021512.00,3200.2328207,S,11553.6877956,E,1,13,1.0,70.254,M,-31.737,M,0.0,0000*57
$GNRMC,021542.00,A,3200.2331194,S,11553.6877179,E,0.02,0.00,010122,0.0,E,A,V*42
$GNGGA,021542.00,3200.2331194,S,11553.6877179,E,1,13,1.0,67.664,M,-31.737,M,0.0,0000*57
$GNRMC,021612.00,A,3200.2331432,S,11553.6880109,E,0.03,0.00,010122,0.0,E,A,V*43
$GNGGA,021612.00,3200.2331432,S,11553.6880109,E,1,13,1.0,68.341,M,-31.737,M,0.0,0000*5A
$GNRMC,021642.00,A,3200.2331191,S,11553.6878076,E,0.01,0.00,010122,0.0,E,A,V*46
$GNGGA,021642.00,3200.2331191,S,11553.6878076,E,1,13,1.0,67.876,M,-31.737,M,0.0,0000*5D
$GNRMC,021712.00,A,3200.2327149,S,11553.6879032,E,0.01,0.00,010122,0.0,E,A,V*41
$GNGGA,021712.00,3200.2327149,S,11553.6879032,E,1,13,1.0,68.632,M,-31.737,M,0.0,0000*5B
$GNRMC,021742.00,A,3200.2327917,S,11553.6875879,E,0.03,0.00,010122,0.0,E,A,V*4E
$GNGGA,021742.00,3200.2327917,S,11553.6875879,E,1,13,1.0,68.154,M,-31.737,M,0.0,0000*51
$GNRMC,021812.00,A,3200.2328693,S,11553.6875501,E,0.02,0.00,010122,0.0,E,A,V*4B
$GNGGA,021812.00,3200.2328693,S,11553.6875501,E,1,13,1.0,68.650,M,-31.737,M,0.0,0000*56
$GNRMC,021842.00,A,3200.2332269,S,11553.6877456,E,0.03,0.00,010122,0.0,E,A,V*44
$GNGGA,021842.00,3200.2332269,S,11553.6877456,E,1,13,1.0,68.812,M,-31.737,M,0.0,0000*50
$GNRMC,021912.00,A,3200.2330677,S,11553.6878220,E,0.04,0.00,010122,0.0,E,A,V*46
$GNGGA,021912.00,3200.2330677,S,11553.6878220,E,1,13,1.0,67.479,M,-31.737,M,0.0,0000*5B
$GNRMC,021942.00,A,3200.2331505,S,11553.6878086,E,0.05,0.00,010122,0.0,E,A,V*4B
$GNGGA,021942.00,3200.2331505,S,11553.6878086,E,1,13,1.0,68.047,M,-31.737,M,0.0,0000*51
$GNRMC,022012.00,A,3200.2331350,S,11553.6871604,E,0.03,0.00,010122,0.0,E,A,V*41
$GNGGA,022012.00,3200.2331350,S,11553.6871604,E,1,13,1.0,67.219,M,-31.737,M,0.0,0000*5B
$GNRMC,022042.00,A,3200.2332702,S,11553.6873807,E,0.03,0.00,010122,0.0,E,A,V*4B
$GNGGA,022042.00,3200.2332702,S,11553.6873807,E,1,13,1.0,66.725,M,-31.737,M,0.0,0000*5A
$GNRMC,022112.00,A,3200.2330420,S,11553.6877137,E,0.05,0.00,010122,0.0,E,A,V*46
$GNGGA,022112.00,3200.2330420,S,11553.6877137,E,1,13,1.0,69.287,M,-31.737,M,0.0,0000*53
$GNRMC,022142.00,A,3200.2329763,S,11553.6876894,E,0.02,0.00,010122,0.0,E,A,V*49
$GNGGA,022142.00,3200.2329763,S,11553.6876894,E,1,13,1.0,67.789,M,-31.737,M,0.0,0000*5E
$GNRMC,022212.00,A,3200.2333340,S,11553.6875073,E,0.01,0.00,010122,0.0,E,A,V*40
$GNGGA,022212.00,3200.2333340,S,11553.6875073,E,1,13,1.0,69.087,M,-31.737,M,0.0,0000*53
$GNRMC,022242.00,A,3200.2332638,S,11553.6872744,E,0.06,0.00,010122,0.0,E,A,V*4D
$GNGGA,022242.00,3200.2332638,S,11553.6872744,E,1,13,1.0,68.012,M,-31.737,M,0.0,0000*54
$GNRMC,022312.00,A,3200.2329600,S,11553.6874796,E,0.03,0.00,010122,0.0,E,A,V*44
$GNGGA,022312.00,3200.2329600,S,11553.6874796,E,1,13,1.0,66.795,M,-31.737,M,0.0,0000*5E
$GNRMC,022342.00,A,3200.2331855,S,11553.6871799,E,0.00,0.00,010122,0.0,E,A,V*4F
$GNGGA,022342.00,3200.2331855,S,11553.6871799,E,1,13,1.0,66.751,M,-31.737,M,0.0,0000*5E
$GNRMC,022412.00,A,3200.2329485,S,11553.6878829,E,0.01,0.00,010122,0.0,E,A,V*49
$GNGGA,022412.00,3200.2329485,S,11553.6878829,E,1,13,1.0,67.702,M,-31.737,M,0.0,0000*5E
$GNRMC,022442.00,A,3200.2331188,S,11553.6874197,E,0.02,0.00,010122,0.0,E,A,V*4E
$GNGGA,022442.00,3200.2331188,S,11553.6874197,E,1,13,1.0,68.023,M,-31.737,M,0.0,0000*51
$GNRMC,022512.00,A,3200.2329262,S,11553.6874849,E,0.07,0.00,010122,0.0,E,A,V*4B
$GNGGA,022512.00,3200.2329262,S,11553.6874849,E,1,13,1.0,67.919,M,-31.737,M,0.0,0000*5E
$GNRMC,022542.00,A,3200.2328044,S,11553.6877614,E,0.03,0.00,010122,0.0,E,A,V*48
$GNGGA,022542.00,3200.2328044,S,11553.6877614,E,1,13,1.0,68.422,M,-31.737,M,0.0,0000*53
$GNRMC,022612.00,A,3200.2330316,S,11553.6871982,E,0.05,0.00,010122,0.0,E,A,V*43
$GNGGA,022612.00,3200.2330316,S,11553.6871982,E,1,13,1.0,67.571,M,-31.737,M,0.0,0000*56
$GNRMC,022642.00,A,3200.2329671,S,11553.6873629,E,0.08,0.00,010122,0.0,E,A,V*4B
$GNGGA,022642.00,3200.2329671,S,11553.6873629,E,1,13,1.0,67.178,M,-31.737,M,0.0,0000*5E
$GNRMC,022712.00,A,3200.2331828,S,11553.6875067,E,0.03,0.00,010122,0.0,E,A,V*45
$GNGGA,022712.00,3200.2331828,S,11553.6875067,E,1,13,1.0,65.588,M,-31.737,M,0.0,0000*52
$GNRMC,022742.00,A,3200.2328731,S,11553.6872890,E,0.02,0.00,010122,0.0,E,A,V*49
$GNGGA,022742.00,3200.2328731,S,11553.6872890,E,1,13,1.0,67.238,M,-31.737,M,0.0,0000*51
$GNRMC,022812.00,A,3200.2330115,S,11553.6873717,E,0.04,0.00,010122,0.0,E,A,V*4D
$GNGGA,022812.00,3200.2330115,S,11553.6873717,E,1,13,1.0,67.060,M,-31.737,M,0.0,0000*5C
$GNRMC,022842.00,A,3200.2330117,S,11553.6871853,E,0.04,0.00,010122,0.0,E,A,V*47
$GNGGA,022842.00,3200.2330117,S,11553.6871853,E,1,13,1.0,67.510,M,-31.737,M,0.0,0000*54
$GNRMC,022912.00,A,3200.2330850,S,11553.6872381,E,0.03,0.00,010122,0.0,E,A,V*49
$GNGGA,022912.00,3200.2330850,S,11553.6872381,E,1,13,1.0,67.792,M,-31.737,M,0.0,0000*55
$GNRMC,022942.00,A,3200.2332370,S,11553.6875834,E,0.04,0.00,010122,0.0,E,A,V*42
$GNGGA,022942.00,3200.2332370,S,11553.6875834,E,1,13,1.0,67.235,M,-31.737,M,0.0,0000*51
$GNRMC,023012.00,A,3200.2333431,S,11553.6874946,E,0.03,0.00,010122,0.0,E,A,V*4E
$GNGGA,023012.00,3200.2333431,S,11553.6874946,E,1,13,1.0,67.119,M,-31.737,M,0.0,0000*57
$GNRMC,023042.00,A,3200.2328963,S,11553.6875522,E,0.08,0.00,010122,0.0,E,A,V*4F
$GNGGA,023042.00,3200.2328963,S,11553.6875522,E,1,13,1.0,67.132,M,-31.737,M,0.0,0000*54
$GNRMC,023112.00,A,3200.2334738,S,11553.6869777,E,0.04,0.00,010122,0.0,E,A,V*45
$GNGGA,023112.00,3200.2334738,S,11553.6869777,E,1,14,1.0,67.591,M,-31.737,M,0.0,0000*58
$GNRMC,023142.00,A,3200.2334805,S,11553.6868956,E,0.04,0.00,010122,0.0,E,A,V*4D
$GNGGA,023142.00,3200.2334805,S,11553.6868956,E,1,14,1.0,67.064,M,-31.737,M,0.0,0000*5F
$GNRMC,023212.00,A,3200.2335444,S,11553.6870515,E,0.06,0.00,010122,0.0,E,A,V*43
$GNGGA,023212.00,3200.2335444,S,11553.6870515,E,1,14,1.0,68.135,M,-31.737,M,0.0,0000*59
$GNRMC,023242.00,A,3200.2334435,S,11553.6870588,E,0.03,0.00,010122,0.0,E,A,V*40
$GNGGA,023242.00,3200.2334435,S,11553.6870588,E,1,14,1.0,66.922,M,-31.737,M,0.0,0000*5F
$GNRMC,023312.00,A,3200.2334732,S,11553.6870002,E,0.02,0.00,010122,0.0,E,A,V*46
$GNGGA,023312.00,3200.2334732,S,11553.6870002,E,1,14,1.0,67.400,M,-31.737,M,0.0,0000*54
$GNRMC,023342.00,A,3200.2332578,S,11553.6871386,E,0.03,0.00,010122,0.0,E,A,V*46
$GNGGA,023342.00,3200.2332578,S,11553.6871386,E,1,14,1.0,66.859,M,-31.737,M,0.0,0000*54
$GNRMC,023412.00,A,3200.2336434,S,11553.6869939,E,0.03,0.00,010122,0.0,E,A,V*4E
$GNGGA,023412.00,3200.2336434,S,11553.6869939,E,1,14,1.0,67.431,M,-31.737,M,0.0,0000*5F
$GNRMC,023442.00,A,3200.2334506,S,11553.6875650,E,0.05,0.00,010122,0.0,E,A,V*42
$GNGGA,023442.00,3200.2334506,S,11553.6875650,E,1,14,1.0,67.480,M,-31.737,M,0.0,0000*5F
$GNRMC,023512.00,A,3200.2332396,S,11553.6874404,E,0.06,0.00,010122,0.0,E,A,V*4E
$GNGGA,023512.00,3200.2332396,S,11553.6874404,E,1,14,1.0,68.219,M,-31.737,M,0.0,0000*59
$GNRMC,023542.00,A,3200.2333879,S,11553.6871556,E,0.02,0.00,010122,0.0,E,A,V*47
$GNGGA,023542.00,3200.2333879,S,11553.6871556,E,1,14,1.0,67.338,M,-31.737,M,0.0,0000*59
$GNRMC,023612.00,A,3200.2330987,S,11553.6871208,E,0.01,0.00,010122,0.0,E,A,V*4D
$GNGGA,023612.00,3200.2330987,S,11553.6871208,E,1,14,1.0,68.174,M,-31.737,M,0.0,0000*55
$GNRMC,023642.00,A,3200.2327712,S,11553.6877820,E,0.04,0.00,010122,0.0,E,A,V*4F
$GNGGA,023642.00,3200.2327712,S,11553.6877820,E,1,15,1.0,71.589,M,-31.737,M,0.0,0000*5D
$GNRMC,023712.00,A,3200.2329219,S,11553.6875600,E,0.03,0.00,010122,0.0,E,A,V*42
$GNGGA,023712.00,3200.2329219,S,11553.6875600,E,1,15,1.0,71.203,M,-31.737,M,0.0,0000*52
$GNRMC,023742.00,A,3200.2329167,S,11553.6873233,E,0.03,0.00,010122,0.0,E,A,V*4F
$GNGGA,023742.00,3200.2329167,S,11553.6873233,E,1,15,1.0,68.516,M,-31.737,M,0.0,0000*54
$GNRMC,023812.00,A,3200.2330398,S,11553.6872643,E,0.06,0.00,010122,0.0,E,A,V*48
$GNGGA,023812.00,3200.2330398,S,11553.6872643,E,1,15,1.0,69.198,M,-31.737,M,0.0,0000*55
$GNRMC,023842.00,A,3200.2331377,S,11553.6876583,E,0.03,0.00,010122,0.0,E,A,V*43
$GNGGA,023842.00,3200.2331377,S,11553.6876583,E,1,15,1.0,70.363,M,-31.737,M,0.0,0000*55
$GNRMC,023912.00,A,3200.2330889,S,11553.6876325,E,0.06,0.00,010122,0.0,E,A,V*43
$GNGGA,023912.00,3200.2330889,S,11553.6876325,E,1,15,1.0,71.352,M,-31.737,M,0.0,0000*53
$GNRMC,023942.00,A,3200.2328919,S,11553.6878719,E,0.03,0.00,010122,0.0,E,A,V*47
$GNGGA,023942.00,3200.2328919,S,11553.6878719,E,1,15,1.0,70.615,M,-31.737,M,0.0,0000*55
$GNRMC,024012.00,A,3200.2341154,S,11553.6877351,E,0.01,0.00,010122,0.0,E,A,V*47
$GNGGA,024012.00,3200.2341154,S,11553.6877351,E,1,16,1.0,71.119,M,-31.737,M,0.0,0000*5E
$GNRMC,024042.00,A,3200.2335577,S,11553.6882477,E,0.05,0.00,010122,0.0,E,A,V*49
$GNGGA,024042.00,3200.2335577,S,11553.6882477,E,1,16,1.0,71.716,M,-31.737,M,0.0,0000*5D
$GNRMC,024112.00,A,3200.2335492,S,11553.6878410,E,0.03,0.00,010122,0.0,E,A,V*45
$GNGGA,024112.00,3200.2335492,S,11553.6878410,E,1,16,1.0,69.965,M,-31.737,M,0.0,0000*54
$GNRMC,024142.00,A,3200.2337373,S,11553.6876411,E,0.03,0.00,010122,0.0,E,A,V*45
$GNGGA,024142.00,3200.2337373,S,11553.6876411,E,1,16,1.0,71.762,M,-31.737,M,0.0,0000*54
$GNRMC,024212.00,A,3200.2332614,S,11553.6876181,E,0.04,0.00,010122,0.0,E,A,V*49
$GNGGA,024212.00,3200.2332614,S,11553.6876181,E,1,16,1.0,70.964,M,-31.737,M,0.0,0000*56
$GNRMC,024242.00,A,3200.2331319,S,11553.6875506,E,0.01,0.00,010122,0.0,E,A,V*4A
$GNGGA,024242.00,3200.2331319,S,11553.6875506,E,1,16,1.0,70.529,M,-31.737,M,0.0,0000*55
$GNRMC,024312.00,A,3200.2331582,S,11553.6879198,E,0.01,0.00,010122,0.0,E,A,V*45
$GNGGA,024312.00,3200.2331582,S,11553.6879198,E,1,16,1.0,72.457,M,-31.737,M,0.0,0000*50
$GNRMC,024342.00,A,3200.2332010,S,11553.6876047,E,0.03,0.00,010122,0.0,E,A,V*43
$GNGGA,024342.00,3200.2332010,S,11553.6876047,E,1,16,1.0,71.100,M,-31.737,M,0.0,0000*50
$GNRMC,024412.00,A,3200.2330300,S,11553.6873866,E,0.01,0.00,010122,0.0,E,A,V*4D
$GNGGA,024412.00,3200.2330300,S,11553.6873866,E,1,16,1.0,71.851,M,-31.737,M,0.0,0000*51
$GNRMC,024442.00,A,3200.2334977,S,11553.6877085,E,0.01,0.00,010122,0.0,E,A,V*47
$GNGGA,024442.00,3200.2334977,S,11553.6877085,E,1,16,1.0,72.022,M,-31.737,M,0.0,0000*54
$GNRMC,024512.00,A,3200.2330472,S,11553.6875698,E,0.01,0.00,010122,0.0,E,A,V*47
$GNGGA,024512.00,3200.2330472,S,11553.6875698,E,1,16,1.0,72.373,M,-31.737,M,0.0,0000*53
$GNRMC,024542.00,A,3200.2333460,S,11553.6876605,E,0.03,0.00,010122,0.0,E,A,V*47
$GNGGA,024542.00,3200.2333460,S,11553.6876605,E,1,16,1.0,72.047,M,-31.737,M,0.0,0000*55
$GNRMC,024612.00,A,3200.2332147,S,11553.6877844,E,0.07,0.00,010122,0.0,E,A,V*4E
$GNGGA,024612.00,3200.2332147,S,11553.6877844,E,1,16,1.0,71.391,M,-31.737,M,0.0,0000*53
$GNRMC,024642.00,A,3200.2332926,S,11553.6873823,E,0.02,0.00,010122,0.0,E,A,V*44
$GNGGA,024642.00,3200.2332926,S,11553.6873823,E,1,16,1.0,70.815,M,-31.737,M,0.0,0000*5A
$GNRMC,024712.00,A,3200.2337139,S,11553.6876298,E,0.01,0.00,010122,0.0,E,A,V*4F
$GNGGA,024712.00,3200.2337139,S,11553.6876298,E,1,16,1.0,71.267,M,-31.737,M,0.0,0000*5C
$GNRMC,024742.00,A,3200.2333218,S,11553.6877376,E,0.02,0.00,010122,0.0,E,A,V*4D
$GNGGA,024742.00,3200.2333218,S,11553.6877376,E,1,16,1.0,70.566,M,-31.737,M,0.0,0000*5A
$GNRMC,024812.00,A,3200.2332787,S,11553.6879175,E,0.02,0.00,010122,0.0,E,A,V*4A
$GNGGA,024812.00,3200.2332787,S,11553.6879175,E,1,16,1.0,70.770,M,-31.737,M,0.0,0000*58
$GNRMC,024842.00,A,3200.2335109,S,11553.6878715,E,0.03,0.00,010122,0.0,E,A,V*48
$GNGGA,024842.00,3200.2335109,S,11553.6878715,E,1,16,1.0,70.895,M,-31.737,M,0.0,0000*5F
$GNRMC,024912.00,A,3200.2330013,S,11553.6878751,E,0.01,0.00,010122,0.0,E,A,V*41
$GNGGA,024912.00,3200.2330013,S,11553.6878751,E,1,16,1.0,70.905,M,-31.737,M,0.0,0000*5C
$GNRMC,024942.00,A,3200.2329304,S,11553.6872718,E,0.02,0.00,010122,0.0,E,A,V*4D
$GNGGA,024942.00,3200.2329304,S,11553.6872718,E,1,16,1.0,70.970,M,-31.737,M,0.0,0000*51
$GNRMC,025012.00,A,3200.2331729,S,11553.6875372,E,0.03,0.00,010122,0.0,E,A,V*4C
$GNGGA,025012.00,3200.2331729,S,11553.6875372,E,1,16,1.0,71.185,M,-31.737,M,0.0,0000*52
$GNRMC,025042.00,A,3200.2333007,S,11553.6875001,E,0.03,0.00,010122,0.0,E,A,V*47
$GNGGA,025042.00,3200.2333007,S,11553.6875001,E,1,15,1.0,70.353,M,-31.737,M,0.0,0000*52
$GNRMC,025112.00,A,3200.2328196,S,11553.6873618,E,0.04,0.00,010122,0.0,E,A,V*4F
$GNGGA,025112.00,3200.2328196,S,11553.6873618,E,1,15,1.0,71.192,M,-31.737,M,0.0,0000*53
$GNRMC,025142.00,A,3200.2331062,S,11553.6872941,E,0.02,0.00,010122,0.0,E,A,V*4C
$GNGGA,025142.00,3200.2331062,S,11553.6872941,E,1,15,1.0,70.392,M,-31.737,M,0.0,0000*55
$GNRMC,025212.00,A,3200.2329575,S,11553.6871919,E,0.03,0.00,010122,0.0,E,A,V*4F
$GNGGA,025212.00,3200.2329575,S,11553.6871919,E,1,15,1.0,71.086,M,-31.737,M,0.0,0000*50
$GNRMC,025242.00,A,3200.2336192,S,11553.6877136,E,0.02,0.00,010122,0.0,E,A,V*4B
$GNGGA,025242.00,3200.2336192,S,11553.6877136,E,1,14,1.0,69.404,M,-31.737,M,0.0,0000*53
$GNRMC,025312.00,A,3200.2334185,S,11553.6877459,E,0.03,0.00,010122,0.0,E,A,V*46
$GNGGA,025312.00,3200.2334185,S,11553.6877459,E,1,14,1.0,69.780,M,-31.737,M,0.0,0000*50
$GNRMC,025342.00,A,3200.2335195,S,11553.6873453,E,0.04,0.00,010122,0.0,E,A,V*4A
$GNGGA,025342.00,3200.2335195,S,11553.6873453,E,1,14,1.0,68.640,M,-31.737,M,0.0,0000*57
$GNRMC,025412.00,A,3200.2335065,S,11553.6884887,E,0.04,0.00,010122,0.0,E,A,V*4B
$GNGGA,025412.00,3200.2335065,S,11553.6884887,E,1,14,1.0,69.331,M,-31.737,M,0.0,0000*54
$GNRMC,025442.00,A,3200.2335727,S,11553.6879168,E,0.03,0.00,010122,0.0,E,A,V*42
$GNGGA,025442.00,3200.2335727,S,11553.6879168,E,1,14,1.0,69.480,M,-31.737,M,0.0,0000*57
$GNRMC,025512.00,A,3200.2333165,S,11553.6878082,E,0.03,0.00,010122,0.0,E,A,V*44
$GNGGA,025512.00,3200.2333165,S,11553.6878082,E,1,14,1.0,69.814,M,-31.737,M,0.0,0000*50
$GNRMC,025542.00,A,3200.2332985,S,11553.6878635,E,0.02,0.00,010122,0.0,E,A,V*4D
$GNGGA,025542.00,3200.2332985,S,11553.6878635,E,1,14,1.0,71.199,M,-31.737,M,0.0,0000*5D
$GNRMC,025612.00,A,3200.2335092,S,11553.6877938,E,0.07,0.00,010122,0.0,E,A,V*4B
$GNGGA,025612.00,3200.2335092,S,11553.6877938,E,1,14,1.0,69.974,M,-31.737,M,0.0,0000*5C
$GNRMC,025642.00,A,3200.2335902,S,11553.6878175,E,0.06,0.00,010122,0.0,E,A,V*41
$GNGGA,025642.00,3200.2335902,S,11553.6878175,E,1,14,1.0,70.202,M,-31.737,M,0.0,0000*55
$GNRMC,025712.00,A,3200.2332115,S,11553.6879632,E,0.04,0.00,010122,0.0,E,A,V*4B
$GNGGA,025712.00,3200.2332115,S,11553.6879632,E,1,14,1.0,70.816,M,-31.737,M,0.0,0000*52
$GNRMC,025742.00,A,3200.2337432,S,11553.6876072,E,0.02,0.00,010122,0.0,E,A,V*40
$GNGGA,025742.00,3200.2337432,S,11553.6876072,E,1,14,1.0,68.491,M,-31.737,M,0.0,0000*55
